{
"type": "FeatureCollection",
"name": "wc",
"crs": { "type": "name", "properties": { "name": "urn:ogc:def:crs:OGC:1.3:CRS84" } },
"features": [
{ "type": "Feature", "properties": { "id": 0, "Nom": "Place de la République", "Type": "Public", "Prix": "0,20", "Note": "Pas de papier ni de savon" }, "geometry": { "type": "Point", "coordinates": [ 6.160587847629654, 47.622324877007117 ] } },
{ "type": "Feature", "properties": { "id": 1, "Nom": "Derrière l'église", "Type": "Sauvage", "Prix": "0", "Note": "Un coin à l'abri des regards, décrit par les habitant comme un point de toilettes sauvages." }, "geometry": { "type": "Point", "coordinates": [ 6.156964159755204, 47.623366609359991 ] } },
{ "type": "Feature", "properties": { "id": 2, "Nom": "Passage des Annoncades", "Type": "Sauvage", "Prix": "0", "Note": "Un coin à l'abri des regards, décrit par les habitant comme un point de toilettes sauvages." }, "geometry": { "type": "Point", "coordinates": [ 6.156563775108655, 47.623955202509315 ] } },
{ "type": "Feature", "properties": { "id": 3, "Nom": "Devant la prison", "Type": "Sauvage", "Prix": "0", "Note": "Un coin à l'abri des regards, décrit par les habitant comme un point de toilettes sauvages." }, "geometry": { "type": "Point", "coordinates": [ 6.15553862671783, 47.624369457782912 ] } },
{ "type": "Feature", "properties": { "id": 4, "Nom": "Parking des Annonciades", "Type": "Sauvage", "Prix": "0", "Note": "Un coin à l'abri des regards, décrit par les habitant comme un point de toilettes sauvages." }, "geometry": { "type": "Point", "coordinates": [ 6.155937677769292, 47.624704878491009 ] } },
{ "type": "Feature", "properties": { "id": 5, "Nom": "Local à Balais", "Type": "Sauvage", "Prix": "0", "Note": "Un coin à l'abri des regards, décrit par les habitant comme un point de toilettes sauvages." }, "geometry": { "type": "Point", "coordinates": [ 6.154400369941638, 47.623893813070737 ] } },
{ "type": "Feature", "properties": { "id": 6, "Nom": "Coin Bibliothèque", "Type": "Sauvage", "Prix": "0", "Note": "Un coin à l'abri des regards, décrit par les habitant comme un point de toilettes sauvages." }, "geometry": { "type": "Point", "coordinates": [ 6.153141936293955, 47.622321387455735 ] } },
{ "type": "Feature", "properties": { "id": 7, "Nom": "Parking face Bibliothèque", "Type": "Sauvage", "Prix": "0", "Note": "Un coin à l'abri des regards, décrit par les habitant comme un point de toilettes sauvages." }, "geometry": { "type": "Point", "coordinates": [ 6.152584693600024, 47.621104940028289 ] } },
{ "type": "Feature", "properties": { "id": 8, "Nom": "Enclave Végétale", "Type": "Sauvage", "Prix": "0", "Note": "Un coin à l'abri des regards, décrit par les habitant comme un point de toilettes sauvages." }, "geometry": { "type": "Point", "coordinates": [ 6.152192983229661, 47.620926848899238 ] } },
{ "type": "Feature", "properties": { "id": 9, "Nom": "Parking Beauchamp", "Type": "Disparu", "Prix": "0", "Note": "Les habitants d'un certain age ont évoqué la présence de toilettes publiques à cet endroit. Elles ont disparu depuis." }, "geometry": { "type": "Point", "coordinates": [ 6.154807915158563, 47.623873086835417 ] } },
{ "type": "Feature", "properties": { "id": 10, "Nom": "Kiosque", "Type": "Disparu", "Prix": "0", "Note": "Les habitants d'un certain age ont évoqué la présence de toilettes publiques à cet endroit. Elles ont disparu depuis." }, "geometry": { "type": "Point", "coordinates": [ 6.154261980384241, 47.618915996731893 ] } },
{ "type": "Feature", "properties": { "id": 11, "Nom": "Cour Durgeon", "Type": "Sauvage", "Prix": "0", "Note": "Un coin à l'abri des regards, décrit par les habitant comme un point de toilettes sauvages." }, "geometry": { "type": "Point", "coordinates": [ 6.155440020094269, 47.619630412243197 ] } },
{ "type": "Feature", "properties": { "id": 12, "Nom": "Allée des Bains", "Type": "Public - HS", "Prix": "0,30", "Note": "Ne fonctionne pas" }, "geometry": { "type": "Point", "coordinates": [ 6.156620946280834, 47.620127046485159 ] } },
{ "type": "Feature", "properties": { "id": 13, "Nom": "Entrée cave", "Type": "Sauvage", "Prix": "0", "Note": "Un coin à l'abri des regards, décrit par les habitant comme un point de toilettes sauvages." }, "geometry": { "type": "Point", "coordinates": [ 6.158663977253566, 47.620091881294357 ] } },
{ "type": "Feature", "properties": { "id": 14, "Nom": "Cour face à la gare", "Type": "Sauvage", "Prix": "0", "Note": "Un coin à l'abri des regards, décrit par les habitant comme un point de toilettes sauvages." }, "geometry": { "type": "Point", "coordinates": [ 6.151828268353585, 47.618389899112607 ] } },
{ "type": "Feature", "properties": { "id": 15, "Nom": "Gare", "Type": "Privé - libre service", "Prix": "0", "Note": "Côté Homme HS" }, "geometry": { "type": "Point", "coordinates": [ 6.151746152519108, 47.617695136447786 ] } },
{ "type": "Feature", "properties": { "id": 16, "Nom": "Parking Ravatin", "Type": "Public - HS", "Prix": "0.20", "Note": "Ne fonctionne pas" }, "geometry": { "type": "Point", "coordinates": [ 6.15435323246786, 47.621511424674061 ] } },
{ "type": "Feature", "properties": { "id": 18, "Nom": "Plage Lac de Vaivre", "Type": "Public", "Prix": "0", "Note": "Pas de papier / savon / lumière que d'un côté" }, "geometry": { "type": "Point", "coordinates": [ 6.128137251976425, 47.630467442729859 ] } },
{ "type": "Feature", "properties": { "id": 19, "Nom": "Base de Voile", "Type": "Public", "Prix": "0", "Note": "Pas de papier / lumière / savon" }, "geometry": { "type": "Point", "coordinates": [ 6.107702174899669, 47.637547580546496 ] } },
{ "type": "Feature", "properties": { "id": 17, "Nom": "Jardin Anglais", "Type": "Sauvage", "Prix": "0", "Note": "Un coin à l'abri des regards, décrit par les habitant comme un point de toilettes sauvages." }, "geometry": { "type": "Point", "coordinates": [ 6.163872191337877, 47.623160482187998 ] } },
{ "type": "Feature", "properties": { "id": 20, "Nom": "WC cour mairie", "Type": "Privé - libre service", "Prix": "0", "Note": "Ouvert seulement quand la mairie est ouverte" }, "geometry": { "type": "Point", "coordinates": [ 6.154346605351511, 47.619604322345687 ] } },
{ "type": "Feature", "properties": { "id": 21, "Nom": "Les Halles", "Type": "Disparu", "Prix": "0", "Note": "L'office du tourisme et les habitants ont évoqué la présence de toilettes publiques à cet endroit. Elles ont disparu depuis. Fermées pour dégradations." }, "geometry": { "type": "Point", "coordinates": [ 6.159656885715473, 47.621626510568575 ] } },
{ "type": "Feature", "properties": { "id": 22, "Nom": "Parking routier", "Type": "Public - HS", "Prix": "0", "Note": "Les toilettes sont ouvertes mais il y a tellement de selles partout que je les considère HS. Une honte." }, "geometry": { "type": "Point", "coordinates": [ 6.138977551763816, 47.623848379777428 ] } }
]
}
